Country,latitude,longitude,Name,2021 Rank,2021 Score,2020 Rank,2020 Score,2018 Rank,2018 Score,2017 Rank,2017 Score,2016 Rank,2016 Score,2015 Rank,2015 Score,2014 Rank,2014 Score,2013 Rank,2013 Score,2012 Rank,2012 Score,2011 Rank,2011 Score,2010 Rank,2010 Score,2009 Rank,2009 Score,2008 Rank,2008 Score,2007 Rank,2007 Score,2006 Rank,2006 Score
AF,33.93911,67.709953,Afghanistan,156,0.444,0,0,0,0,0,0,0,0,0,0,0,0,0,0,0,0,0,0,0,0,0,0,0,0,0,0,0,0
AL,41.153332,20.168331,Albania,25,0.77,20,0.769,34,0.734,38,0.728,62,0.704,70,0.701,83,0.6869,108,0.6412,91,0.6655,78,0.6748,78,0.6726,91,0.6601,87,0.6591,66,0.6685,61,0.6607
DZ,28.033886,1.659626,Algeria,136,0.633,132,0.634,128,0.629,127,0.629,120,0.642,128,0.632,126,0.6182,124,0.5966,120,0.6112,121,0.5991,119,0.6052,117,0.6119,111,0.6111,108,0.6068,97,0.6018
AO,-11.202692,17.873887,Angola,119,0.657,118,0.66,125,0.633,123,0.64,117,0.643,126,0.637,121,0.6311,92,0.6659,0,0,0,0,0,0,0,0,0,0,0,0,0,0
AR,-38.416097,-63.616672,Argentina,35,0.752,30,0.746,36,0.733,34,0.732,33,0.735,35,0.734,31,0.7317,34,0.7195,32,0.7212,28,0.7236,29,0.7187,24,0.7211,24,0.7209,33,0.6982,41,0.6829
AM,40.069099,45.038189,Armenia,114,0.673,98,0.684,98,0.678,97,0.677,102,0.669,105,0.668,103,0.6622,94,0.6634,92,0.6636,84,0.6654,84,0.6669,90,0.6619,78,0.6677,71,0.6651,0,0
AU,-25.274398,133.775136,Australia,50,0.731,44,0.731,39,0.73,35,0.731,46,0.721,36,0.733,24,0.7409,24,0.739,25,0.7294,23,0.7291,23,0.7271,20,0.7282,21,0.7241,17,0.7204,15,0.7163
AT,47.516231,14.550072,Austria,21,0.777,34,0.744,53,0.718,57,0.709,52,0.716,37,0.733,36,0.7266,19,0.7437,20,0.7391,34,0.7165,37,0.7091,42,0.7031,29,0.7153,27,0.706,27,0.6986
AZ,40.143105,47.576927,Azerbaijan,100,0.688,94,0.687,97,0.68,98,0.676,86,0.684,96,0.675,94,0.6753,99,0.6582,99,0.6546,91,0.6577,100,0.6446,89,0.6626,61,0.6856,59,0.6781,0,0
BS,25.03428,-77.39628,Bahamas,58,0.725,61,0.72,30,0.741,27,0.743,37,0.729,40,0.728,35,0.7269,40,0.7128,37,0.7156,22,0.734,36,0.7128,28,0.7179,0,0,0,0,0,0
BH,25.930414,50.637772,Bahrain,137,0.632,133,0.629,132,0.627,126,0.632,131,0.615,123,0.644,124,0.6261,112,0.6334,111,0.6298,110,0.6232,110,0.6217,116,0.6136,121,0.5927,115,0.5931,102,0.5894
BD,23.684994,90.356331,Bangladesh,65,0.719,50,0.726,48,0.721,47,0.719,72,0.698,64,0.704,68,0.6973,75,0.6848,86,0.6684,69,0.6812,82,0.6702,93,0.6526,90,0.6531,100,0.6314,91,0.627
BB,13.193887,-59.543198,Barbados,27,0.769,28,0.749,21,0.753,23,0.75,28,0.739,24,0.744,33,0.7289,29,0.7301,27,0.7232,33,0.717,31,0.7176,21,0.7236,26,0.7188,0,0,0,0
BY,53.709807,27.953389,Belarus,33,0.758,29,0.746,28,0.747,26,0.744,30,0.737,34,0.734,0,0,0,0,0,0,0,0,0,0,0,0,0,0,0,0,0,0
BE,50.503887,4.469936,Belgium,13,0.789,27,0.75,32,0.738,31,0.739,24,0.745,19,0.753,10,0.7809,11,0.7684,12,0.7652,13,0.7531,14,0.7509,33,0.7165,28,0.7163,19,0.7198,20,0.7078
BZ,17.189877,-88.49765,Belize,90,0.699,110,0.671,111,0.662,79,0.692,98,0.676,103,0.668,100,0.6701,107,0.6449,102,0.6465,100,0.6489,93,0.6536,87,0.6636,86,0.661,94,0.6426,0,0
BJ,9.30769,2.315834,Benin,123,0.653,119,0.658,118,0.654,116,0.652,127,0.636,129,0.625,0,0,126,0.5885,117,0.6258,128,0.5832,128,0.5719,131,0.5643,126,0.5582,123,0.5656,110,0.578
BT,27.514162,90.433601,Bhutan,130,0.639,131,0.635,122,0.638,124,0.638,121,0.642,118,0.646,120,0.6364,93,0.6651,0,0,0,0,0,0,0,0,0,0,0,0,0,0
BO,-16.290154,-63.588653,Bolivia,61,0.722,42,0.734,25,0.748,17,0.758,23,0.746,22,0.749,58,0.7049,27,0.734,30,0.7222,62,0.6862,76,0.6751,82,0.6693,80,0.6667,80,0.6574,87,0.6335
BA,43.915886,17.679076,Bosnia and Herzegovina,76,0.713,69,0.712,62,0.712,66,0.702,83,0.685,0,0,0,0,0,0,0,0,0,0,0,0,0,0,0,0,0,0,0,0
BW,-22.328474,24.684866,Botswana,71,0.716,73,0.709,55,0.715,46,0.72,54,0.715,55,0.71,51,0.7129,85,0.6752,77,0.6744,66,0.6832,62,0.6876,39,0.7071,63,0.6839,53,0.6797,34,0.6897
BR,-14.235004,-51.92528,Brazil,93,0.695,92,0.691,95,0.681,90,0.684,79,0.687,85,0.686,71,0.6941,62,0.6949,62,0.6909,82,0.6679,85,0.6655,81,0.6695,73,0.6737,74,0.6637,67,0.6543
BN,4.535277,114.727669,Brunei Darussalam,111,0.678,95,0.686,90,0.686,102,0.671,103,0.669,88,0.684,98,0.6719,88,0.673,75,0.675,76,0.6787,77,0.6748,94,0.6524,99,0.6392,0,0,0,0
BG,42.733883,25.48583,Bulgaria,38,0.746,49,0.727,18,0.756,18,0.756,41,0.726,43,0.722,22,0.7444,43,0.7097,52,0.7021,51,0.6987,50,0.6983,38,0.7072,36,0.7077,25,0.7085,37,0.687
BF,12.238333,-1.561593,Burkina Faso,124,0.651,129,0.635,129,0.629,121,0.646,123,0.64,114,0.651,110,0.65,103,0.6513,104,0.6455,115,0.6153,111,0.6162,120,0.6081,115,0.6029,117,0.5912,104,0.5854
BI,-3.373056,29.918886,Burundi,26,0.769,32,0.745,31,0.741,22,0.755,12,0.768,23,0.748,17,0.7565,22,0.7397,24,0.7338,24,0.727,0,0,0,0,0,0,0,0,0,0
KH,12.565679,104.990963,Cambodia,103,0.684,89,0.694,93,0.683,99,0.676,112,0.658,109,0.662,108,0.652,104,0.6509,103,0.6457,102,0.6464,97,0.6482,104,0.641,94,0.6469,98,0.6353,89,0.6291
CM,7.369722,12.354722,Cameroon,96,0.692,96,0.686,57,0.714,87,0.689,85,0.684,90,0.682,0,0,100,0.656,112,0.6291,119,0.6073,114,0.611,118,0.6108,117,0.6017,116,0.5919,103,0.5865
CA,56.130366,-106.346771,Canada,24,0.772,19,0.772,16,0.771,16,0.769,35,0.731,30,0.74,19,0.7464,20,0.7425,21,0.7381,18,0.7407,20,0.7372,25,0.7196,31,0.7136,18,0.7198,14,0.7165
CV,16.002082,-24.013197,Cape Verde,68,0.716,52,0.725,72,0.702,89,0.686,36,0.729,50,0.717,50,0.7133,41,0.7122,35,0.718,0,0,0,0,0,0,0,0,0,0,0,0
TD,15.454166,18.732207,Chad,148,0.593,147,0.596,145,0.58,141,0.575,140,0.587,142,0.58,140,0.5764,134,0.5588,133,0.5594,134,0.5334,133,0.533,133,0.5417,129,0.529,127,0.5381,113,0.5247
CL,-35.675147,-71.542969,Chile,70,0.716,57,0.723,54,0.717,63,0.704,70,0.699,73,0.698,66,0.6975,91,0.667,87,0.6676,46,0.703,48,0.7013,64,0.6884,65,0.6818,86,0.6482,78,0.6455
CN,35.86166,104.195397,China,107,0.682,106,0.676,103,0.673,100,0.674,99,0.676,91,0.682,87,0.683,69,0.6908,69,0.6853,61,0.6866,61,0.6881,60,0.6907,57,0.6878,73,0.6643,63,0.6561
CO,4.570868,-74.297333,Colombia,59,0.725,22,0.758,40,0.729,36,0.731,39,0.727,42,0.725,53,0.7122,35,0.7171,63,0.6901,80,0.6714,55,0.6927,56,0.6939,50,0.6944,24,0.709,22,0.7049
CG,-0.228021,15.827659,Congo. Democratic Rep.,151,0.576,149,0.578,144,0.582,0,0,0,0,0,0,0,0,0,0,0,0,0,0,0,0,0,0,0,0,0,0,0,0
CR,9.748917,-83.753428,Costa Rica,15,0.786,13,0.782,22,0.749,41,0.727,32,0.736,38,0.732,48,0.7165,31,0.7241,29,0.7225,25,0.7266,28,0.7194,27,0.718,32,0.7111,28,0.7014,30,0.6936
CI,7.539989,-5.54708,Côte d'Ivoire,134,0.637,142,0.606,131,0.627,133,0.611,136,0.597,133,0.606,136,0.5874,131,0.5814,130,0.5785,130,0.5773,130,0.5691,0,0,0,0,0,0,0,0
HR,45.1,44242,Croatia,45,0.733,60,0.72,59,0.712,54,0.711,68,0.7,59,0.708,55,0.7075,49,0.7069,49,0.7053,50,0.7006,53,0.6939,54,0.6944,46,0.6967,16,0.721,16,0.7145
CU,21.521757,-77.781167,Cuba,39,0.746,31,0.746,23,0.749,25,0.745,27,0.74,29,0.74,30,0.7317,15,0.754,19,0.7417,20,0.7394,24,0.7253,29,0.7176,25,0.7195,22,0.7169,0,0
CY,35.126413,33.429859,Cyprus,83,0.707,91,0.692,92,0.684,92,0.684,84,0.684,100,0.671,95,0.6741,79,0.6801,79,0.6732,93,0.6567,86,0.6642,79,0.6706,76,0.6694,82,0.6522,83,0.643
CZ,49.817492,15.472962,Czech Republic,78,0.711,78,0.706,82,0.693,88,0.688,77,0.69,81,0.687,96,0.6737,83,0.677,73,0.6767,75,0.6789,65,0.685,74,0.6789,69,0.677,64,0.6718,53,0.6712
DK,56.26392,9.501785,Denmark,29,0.768,14,0.782,13,0.778,14,0.776,19,0.754,14,0.767,5,0.8025,8,0.7779,7,0.7777,7,0.7778,7,0.7719,7,0.7628,7,0.7538,8,0.7519,8,0.7462
DO,18.735693,-70.162651,Dominican Republic,89,0.699,86,0.7,74,0.701,70,0.697,97,0.676,86,0.686,78,0.6906,72,0.6867,89,0.6659,81,0.6682,73,0.6774,67,0.6859,72,0.6744,65,0.6705,59,0.6639
EC,-1.831239,-78.183406,Ecuador,42,0.739,48,0.729,41,0.729,42,0.724,40,0.726,33,0.738,21,0.7455,25,0.7389,33,0.7206,45,0.7035,40,0.7072,23,0.722,35,0.7091,44,0.6881,82,0.6433
EG,26.820553,30.802498,Egypt,129,0.639,134,0.629,135,0.614,134,0.608,132,0.614,136,0.599,129,0.6064,125,0.5935,126,0.5975,123,0.5933,125,0.5899,126,0.5862,124,0.5832,120,0.5809,109,0.5786
SV,13.794185,-88.89653,El Salvador,43,0.738,80,0.706,87,0.69,62,0.705,64,0.702,62,0.706,84,0.6863,96,0.6609,94,0.663,94,0.6567,90,0.6596,55,0.6939,58,0.6875,48,0.6853,39,0.6837
EE,58.595272,25.013607,Estonia,46,0.733,26,0.751,33,0.734,37,0.731,22,0.747,21,0.749,62,0.7017,59,0.6997,60,0.6977,52,0.6983,47,0.7018,37,0.7094,37,0.7076,30,0.7008,29,0.6944
,,,Eswatini,52,0.729,83,0.703,80,0.694,0,0,0,0,0,0,0,0,0,0,0,0,0,0,0,0,0,0,0,0,0,0,0,0
ET,9.145,40.489673,Ethiopia,97,0.691,82,0.705,117,0.656,115,0.656,109,0.662,124,0.64,127,0.6144,118,0.6198,118,0.62,116,0.6136,121,0.6019,122,0.5948,122,0.5867,113,0.5991,100,0.5946
FJ,-16.578193,179.414413,Fiji,113,0.674,103,0.678,106,0.669,125,0.638,0,0,121,0.645,122,0.6286,117,0.6286,113,0.6285,109,0.6255,108,0.6256,103,0.6414,0,0,0,0,0,0
FI,61.92411,25.748151,Finland,2,0.861,3,0.832,4,0.821,3,0.823,2,0.845,3,0.85,2,0.8453,2,0.8421,2,0.8451,3,0.8383,3,0.826,2,0.8252,2,0.8195,3,0.8044,3,0.7958
FR,46.227638,2.213749,France,16,0.784,15,0.781,12,0.779,11,0.778,17,0.755,15,0.761,16,0.7588,45,0.7089,57,0.6984,48,0.7018,46,0.7025,18,0.7331,15,0.7341,51,0.6824,70,0.652
GM,13.443182,-15.310139,Gambia. The,127,0.644,136,0.628,120,0.642,119,0.649,104,0.667,98,0.674,0,0,0,0,0,0,0,0,0,0,0,0,0,0,0,0,0,0
GE,42.315407,43.356892,Georgia,49,0.732,74,0.708,99,0.677,94,0.679,90,0.681,82,0.687,85,0.6855,86,0.675,85,0.6691,86,0.6624,88,0.6598,83,0.668,82,0.6654,67,0.6665,54,0.67
DE,51.165691,10.451526,Germany,11,0.796,10,0.787,14,0.776,12,0.778,13,0.766,11,0.779,12,0.778,14,0.7583,13,0.7629,11,0.759,13,0.753,12,0.7449,11,0.7394,7,0.7618,5,0.7524
GH,7.946527,-1.023194,Ghana,117,0.666,107,0.673,89,0.688,72,0.695,59,0.705,63,0.704,101,0.6661,76,0.6811,71,0.6778,70,0.6811,70,0.6782,80,0.6704,77,0.6679,63,0.6725,58,0.6653
GR,39.074208,21.824312,Greece,98,0.689,84,0.701,78,0.696,78,0.692,92,0.68,87,0.685,91,0.6784,81,0.6782,82,0.6716,56,0.6916,58,0.6908,85,0.6662,75,0.6727,72,0.6648,69,0.654
GT,15.783471,-90.230759,Guatemala,122,0.655,113,0.666,107,0.668,110,0.667,105,0.666,106,0.667,89,0.6821,114,0.6304,116,0.626,112,0.6229,109,0.6238,111,0.6209,112,0.6072,106,0.6144,95,0.6067
GN,9.945587,-9.696645,Guinea,118,0.66,125,0.642,116,0.656,113,0.659,122,0.64,131,0.618,0,0,0,0,0,0,0,0,0,0,0,0,0,0,0,0,0,0
GY,4.860416,-58.93018,Guyana,53,0.728,0,0,0,0,0,0,0,0,66,0.702,64,0.701,48,0.7085,42,0.7119,38,0.7084,38,0.709,35,0.7108,0,0,0,0,0,0
HN,15.199999,-86.241905,Honduras,67,0.716,58,0.722,68,0.706,55,0.711,78,0.69,80,0.688,73,0.6935,82,0.6773,74,0.6763,54,0.6945,54,0.6927,62,0.6893,47,0.696,68,0.6661,74,0.6483
HU,47.162494,19.503304,Hungary,99,0.688,105,0.677,102,0.674,103,0.67,101,0.669,99,0.672,93,0.6759,87,0.6742,81,0.6718,85,0.6642,79,0.672,65,0.6879,60,0.6867,61,0.6731,55,0.6698
IS,64.963051,-19.020835,Iceland,1,0.892,1,0.877,1,0.858,1,0.878,1,0.874,1,0.881,83,0.8594,1,0.8731,1,0.864,1,0.853,1,0.8496,1,0.8276,4,0.7999,4,0.7836,4,0.7813
IN,20.593684,78.96288,India,140,0.625,112,0.668,108,0.665,108,0.669,87,0.683,108,0.664,114,0.6455,101,0.6551,105,0.6442,113,0.619,112,0.6155,114,0.6151,113,0.606,114,0.5936,98,0.6011
ID,-0.789275,113.921327,Indonesia,101,0.688,85,0.7,85,0.691,84,0.691,88,0.682,92,0.681,97,0.6725,95,0.6613,97,0.6591,90,0.6594,87,0.6615,92,0.658,93,0.6473,81,0.655,68,0.6541
IR,32.427908,53.688046,Iran. Islamic Rep.,150,0.582,148,0.584,142,0.589,140,0.583,139,0.587,141,0.58,137,0.5811,130,0.5842,127,0.5927,125,0.5894,123,0.5933,128,0.5839,116,0.6021,118,0.5903,108,0.5803
IQ,33.223191,43.679291,Iraq,154,0.535,152,0.53,147,0.551,0,0,0,0,0,0,0,0,0,0,0,0,0,0,0,0,0,0,0,0,0,0,0,0
IE,53.41291,-8.24389,Ireland,9,0.8,7,0.798,9,0.796,8,0.794,6,0.797,5,0.807,8,0.785,6,0.7823,5,0.7839,5,0.783,6,0.7773,8,0.7597,8,0.7518,9,0.7457,10,0.7335
IL,31.046051,34.851612,Israel,60,0.724,64,0.718,46,0.722,44,0.721,49,0.719,53,0.712,65,0.7005,53,0.7032,56,0.6989,55,0.6926,52,0.6957,45,0.7019,56,0.69,36,0.6965,35,0.6889
IT,41.87194,12.56738,Italy,63,0.721,76,0.707,70,0.706,82,0.692,50,0.719,41,0.726,69,0.6973,71,0.6885,80,0.6729,74,0.6796,74,0.6765,72,0.6798,67,0.6788,84,0.6498,77,0.6456
JM,18.109581,-77.297508,Jamaica,40,0.741,41,0.735,44,0.724,51,0.717,42,0.724,65,0.703,52,0.7128,47,0.7085,51,0.7035,47,0.7028,44,0.7037,48,0.7013,44,0.698,39,0.6925,25,0.7014
JP,36.204824,138.252924,Japan,120,0.656,121,0.652,110,0.662,114,0.657,111,0.66,101,0.67,104,0.6584,105,0.6498,101,0.653,98,0.6514,94,0.6524,101,0.6447,98,0.6434,91,0.6455,80,0.6447
JO,30.585164,36.238414,Jordan,131,0.638,138,0.623,138,0.605,135,0.604,134,0.603,140,0.593,134,0.5968,119,0.6093,121,0.6103,117,0.6117,120,0.6048,113,0.6182,104,0.6275,104,0.6203,93,0.6109
KZ,48.019573,66.923684,Kazakhstan,80,0.71,72,0.71,60,0.712,52,0.713,51,0.718,47,0.719,43,0.721,32,0.7218,31,0.7213,49,0.701,41,0.7055,47,0.7013,45,0.6976,32,0.6983,32,0.6928
KE,-0.023559,37.906193,Kenya,95,0.692,109,0.671,76,0.7,76,0.694,63,0.702,48,0.719,37,0.7258,78,0.6803,72,0.6768,99,0.6493,96,0.6499,97,0.6512,88,0.6547,83,0.6508,73,0.6486
KR,35.907757,127.766922,Korea. Rep.,102,0.687,108,0.672,115,0.657,118,0.65,116,0.649,115,0.651,117,0.6403,111,0.6351,108,0.6356,107,0.6281,104,0.6342,115,0.6146,108,0.6154,97,0.6409,92,0.6157
KW,29.31166,47.481766,Kuwait,143,0.621,122,0.65,126,0.63,129,0.628,128,0.624,117,0.646,113,0.6457,116,0.6292,109,0.632,105,0.6322,105,0.6318,105,0.6356,101,0.6358,96,0.6409,86,0.6341
KG,41.20438,74.766098,Kyrgyz Republic,108,0.681,93,0.689,86,0.691,85,0.691,81,0.687,76,0.693,67,0.6974,63,0.6948,54,0.7013,44,0.7036,51,0.6973,41,0.7058,41,0.7045,70,0.6653,52,0.6742
LA,19.85627,102.495496,Lao PDR,36,0.75,43,0.731,26,0.748,64,0.703,43,0.724,52,0.713,60,0.7044,60,0.6993,0,0,0,0,0,0,0,0,0,0,0,0,0,0
LV,56.879635,24.603189,Latvia,20,0.778,11,0.785,17,0.758,20,0.756,18,0.755,20,0.752,15,0.7691,12,0.761,15,0.7572,19,0.7399,18,0.7429,14,0.7416,10,0.7397,13,0.7333,19,0.7091
LB,33.854721,35.862285,Lebanon,132,0.638,145,0.599,140,0.595,137,0.596,135,0.598,138,0.598,135,0.5923,123,0.6028,122,0.603,118,0.6083,116,0.6084,0,0,0,0,0,0,0,0
LS,-29.609988,28.233608,Lesotho,92,0.698,88,0.695,81,0.693,73,0.695,57,0.706,61,0.706,38,0.7255,16,0.753,14,0.7608,9,0.7666,8,0.7678,10,0.7495,16,0.732,26,0.7078,43,0.6807
LR,6.428055,-9.429499,Liberia,94,0.693,97,0.685,96,0.681,107,0.669,114,0.652,112,0.652,0,0,0,0,0,0,0,0,0,0,0,0,0,0,0,0,0,0
LT,55.169438,23.881275,Lithuania,8,0.804,33,0.745,24,0.749,28,0.742,25,0.744,31,0.74,44,0.7208,28,0.7308,34,0.7191,37,0.7131,35,0.7132,30,0.7175,23,0.7222,14,0.7234,21,0.7077
LU,49.815273,6.129583,Luxembourg,55,0.726,51,0.725,61,0.712,59,0.706,34,0.734,32,0.738,28,0.7333,21,0.741,17,0.7439,30,0.7216,26,0.7231,63,0.6889,66,0.6802,58,0.6786,56,0.6671
MG,-18.766947,46.869107,Madagascar,57,0.725,62,0.719,84,0.691,80,0.692,60,0.704,74,0.698,41,0.7214,56,0.7016,58,0.6982,71,0.6797,80,0.6713,77,0.6732,74,0.6736,89,0.6461,84,0.6385
MW,-13.254308,34.301525,Malawi,115,0.671,116,0.664,112,0.662,101,0.672,67,0.7,68,0.701,34,0.7281,39,0.7139,36,0.7166,65,0.685,68,0.6824,76,0.6738,81,0.6664,87,0.648,81,0.6437
MY,4.210484,101.975766,Malaysia,112,0.676,104,0.677,101,0.676,104,0.67,106,0.666,111,0.655,107,0.652,102,0.6518,100,0.6539,97,0.6525,98,0.6479,100,0.6467,96,0.6442,92,0.6444,72,0.6509
MV,3.202778,73.22068,Maldives,128,0.642,123,0.646,113,0.662,106,0.669,115,0.65,113,0.652,105,0.6557,97,0.6604,95,0.6616,101,0.648,99,0.6452,99,0.6482,91,0.6501,99,0.635,0,0
ML,17.570692,-3.996166,Mali,149,0.591,139,0.621,143,0.582,139,0.583,138,0.591,137,0.599,138,0.5779,128,0.5872,128,0.5842,132,0.5752,131,0.568,127,0.586,109,0.6117,112,0.6019,99,0.5996
MT,35.937496,14.375416,Malta,84,0.703,90,0.693,91,0.686,93,0.682,108,0.664,104,0.668,99,0.6707,84,0.6761,88,0.6666,83,0.6658,83,0.6695,88,0.6635,83,0.6634,76,0.6615,71,0.6518
MR,21.00789,-10.940835,Mauritania,146,0.606,141,0.614,136,0.607,132,0.614,129,0.624,132,0.613,131,0.6029,132,0.581,119,0.6129,114,0.6164,113,0.6152,119,0.6103,110,0.6117,111,0.6022,106,0.5835
MU,-20.348404,57.552152,Mauritius,110,0.679,115,0.665,109,0.663,112,0.664,113,0.652,120,0.646,106,0.6541,98,0.6599,98,0.6547,95,0.6529,95,0.652,96,0.6513,95,0.6466,85,0.6487,88,0.6328
MX,23.634501,-102.552784,Mexico,34,0.757,25,0.754,50,0.721,81,0.692,66,0.7,71,0.699,80,0.69,68,0.6917,84,0.6712,89,0.6604,91,0.6577,98,0.6503,97,0.6441,93,0.6441,75,0.6462
MD,47.411631,28.369885,Moldova,28,0.768,23,0.757,35,0.733,30,0.74,26,0.741,26,0.742,25,0.7405,52,0.7037,45,0.7101,39,0.7083,34,0.716,36,0.7104,20,0.7244,21,0.7172,17,0.7128
MN,46.862496,103.846656,Mongolia,69,0.716,79,0.706,58,0.714,53,0.713,58,0.705,56,0.709,42,0.7212,33,0.7204,44,0.7111,36,0.714,27,0.7194,22,0.7221,40,0.7049,62,0.6731,42,0.6821
ME,42.708678,19.37439,Montenegro,48,0.732,71,0.71,69,0.706,77,0.693,89,0.681,79,0.689,0,0,0,0,0,0,0,0,0,0,0,0,0,0,0,0,0,0
MA,31.791702,-7.09262,Morocco,144,0.612,143,0.605,137,0.607,136,0.598,137,0.597,139,0.593,133,0.5988,129,0.5845,129,0.5833,129,0.5804,127,0.5767,124,0.5926,125,0.5757,122,0.5676,107,0.5827
MZ,-18.665695,35.529562,Mozambique,32,0.758,56,0.723,49,0.721,29,0.741,21,0.75,27,0.741,27,0.737,26,0.7349,23,0.735,26,0.7251,22,0.7329,26,0.7195,18,0.7266,43,0.6883,0,0
MM,21.913965,95.956223,Myanmar,109,0.681,114,0.665,88,0.69,83,0.691,0,0,0,0,0,0,0,0,0,0,0,0,0,0,0,0,0,0,0,0,0,0
,-22.95764,18.49041,Namibia,6,0.809,12,0.784,10,0.789,13,0.777,14,0.765,16,0.76,40,0.7219,44,0.7094,41,0.7121,32,0.7177,25,0.7238,32,0.7167,30,0.7141,29,0.7012,38,0.6864
NP,28.394857,84.124008,Nepal,106,0.683,101,0.68,105,0.671,111,0.664,110,0.661,110,0.658,112,0.6458,121,0.6053,123,0.6026,126,0.5888,115,0.6084,110,0.6213,120,0.5942,125,0.5575,111,0.5478
NL,52.132633,5.291266,Netherlands,31,0.762,38,0.736,27,0.747,32,0.737,16,0.756,13,0.776,14,0.773,13,0.7608,11,0.7659,15,0.747,17,0.7444,11,0.749,9,0.7399,12,0.7383,12,0.725
NZ,-40.900557,174.885971,New Zealand,4,0.84,6,0.799,7,0.801,9,0.791,9,0.781,10,0.782,13,0.7772,7,0.7799,6,0.7805,6,0.781,5,0.7808,5,0.788,5,0.7859,5,0.7649,7,0.7509
NI,12.865416,-85.207229,Nicaragua,12,0.796,5,0.804,5,0.809,6,0.814,10,0.78,12,0.776,6,0.7894,10,0.7715,9,0.7697,27,0.7245,30,0.7176,49,0.7002,71,0.6747,90,0.6458,62,0.6566
NE,17.607789,8.081666,Niger*,138,0.629,128,0.635,133,0.621,122,0.641,118,0.643,125,0.638,118,0.6391,106,0.6469,110,0.6315,120,0.6011,118,0.6055,108,0.628,102,0.6339,107,0.6122,94,0.6104
NG,9.081999,8.675277,Nigeria,139,0.627,128,0.635,133,0.621,122,0.641,118,0.643,125,0.638,118,0.6391,106,0.6469,110,0.6315,120,0.6011,118,0.6055,108,0.628,102,0.6339,107,0.6122,94,0.6104
MK,41.608635,21.745275,North Macedonia,73,0.715,70,0.711,66,0.707,67,0.702,0,0,69,0.701,70,0.6943,57,0.7013,61,0.6968,53,0.6966,49,0.6996,53,0.695,53,0.6914,35,0.6967,28,0.6983
NO,60.472024,8.468946,Norway,3,0.849,2,0.842,2,0.835,2,0.83,3,0.842,2,0.85,3,0.8374,3,0.8417,3,0.8403,2,0.8404,2,0.8404,3,0.8227,1,0.8239,2,0.8059,2,0.7994
OM,21.512583,55.923255,Oman,145,0.608,144,0.602,139,0.605,0,0,133,0.612,135,0.604,128,0.6091,122,0.6053,125,0.5986,127,0.5873,122,0.595,123,0.5938,118,0.596,119,0.5903,0,0
PK,30.375321,69.345116,Pakistan,153,0.556,151,0.564,148,0.55,143,0.546,143,0.556,144,0.559,141,0.5522,135,0.5459,134,0.5478,133,0.5583,132,0.5465,132,0.5458,127,0.5549,126,0.5509,112,0.5434
PA,8.537981,-80.782127,Panama,44,0.737,46,0.73,45,0.722,43,0.722,47,0.721,44,0.722,46,0.7195,37,0.7164,40,0.7122,40,0.7042,39,0.7072,43,0.7024,34,0.7095,38,0.6954,31,0.6935
PG,-6.314993,143.95555,Papua New Guinea,135,0.635,127,0.635,0,0,0,0,0,0,0,0,0,0,0,0,0,0,0,0,0,0,0,0,0,0,0,0,0,0
PY,-23.442503,-58.443832,Paraguay,86,0.702,100,0.683,104,0.672,96,0.678,96,0.676,107,0.666,81,0.689,89,0.6724,83,0.6714,67,0.6818,69,0.6804,66,0.6868,100,0.6379,69,0.6659,64,0.6556
PE,-9.189967,-75.015152,Peru,62,0.721,66,0.714,52,0.72,48,0.719,80,0.687,89,0.683,45,0.7198,80,0.6787,78,0.6742,73,0.6796,60,0.6895,44,0.7024,48,0.6959,75,0.6624,60,0.6619
PH,12.879721,121.774017,Philippines,17,0.784,16,0.781,8,0.799,10,0.79,7,0.786,7,0.79,9,0.7814,5,0.7832,8,0.7757,8,0.7685,9,0.7654,9,0.7579,6,0.7568,6,0.7629,6,0.7516
PL,51.919438,19.145136,Poland,75,0.713,40,0.736,42,0.728,39,0.728,38,0.727,51,0.715,57,0.7051,54,0.7031,53,0.7015,42,0.7038,43,0.7037,50,0.6998,49,0.6951,60,0.6756,44,0.6802
PT,39.399872,-8.224454,Portugal,22,0.775,35,0.744,37,0.732,33,0.734,31,0.737,39,0.731,39,0.7243,51,0.7056,47,0.7071,35,0.7144,32,0.7171,46,0.7013,39,0.7051,37,0.6959,33,0.6922
QA,25.354826,51.183884,Qatar,142,0.624,135,0.629,127,0.629,130,0.626,119,0.643,122,0.645,116,0.6403,115,0.6299,115,0.6264,111,0.623,117,0.6059,125,0.5907,119,0.5948,109,0.6041,0,0
RO,45.943161,24.96676,Romania,88,0.7,55,0.724,63,0.711,58,0.708,76,0.69,77,0.693,72,0.6936,70,0.6908,67,0.6859,68,0.6812,67,0.6826,70,0.6805,70,0.6763,47,0.6859,46,0.6797
RU,61.52401,105.318756,Russian Federation,81,0.708,81,0.706,75,0.701,71,0.696,75,0.691,75,0.694,75,0.6927,61,0.6983,59,0.698,43,0.7037,45,0.7036,51,0.6987,42,0.6994,45,0.6866,49,0.677
RW,-1.940278,29.873888,Rwanda,7,0.805,9,0.791,6,0.804,4,0.822,5,0.8,6,0.794,0,0,0,0,0,0,0,0,0,0,0,0,0,0,0,0,0,0
SA,23.885942,45.079162,Saudi Arabia,147,0.603,146,0.599,141,0.59,138,0.584,141,0.583,134,0.605,130,0.6059,127,0.5879,131,0.5731,131,0.5753,129,0.5713,130,0.5651,128,0.5537,124,0.5647,114,0.5242
SN,14.497401,-14.452362,Senegal,104,0.684,99,0.684,94,0.682,91,0.684,82,0.685,72,0.698,77,0.6912,67,0.6923,90,0.6657,92,0.6573,101,0.6414,102,0.6427,0,0,0,0,0,0
RS,44.016521,21.005859,Serbia,19,0.78,39,0.736,38,0.73,40,0.727,48,0.72,45,0.72,54,0.7086,42,0.7116,50,0.7037,0,0,0,0,0,0,0,0,0,0,0,0
SL,8.460555,-11.779889,Sierra Leone,121,0.655,111,0.668,114,0.661,0,0,0,0,0,0,0,0,0,0,0,0,0,0,0,0,0,0,0,0,0,0,0,0
SG,1.352083,103.819836,Singapore,54,0.727,54,0.724,67,0.707,65,0.702,55,0.712,54,0.711,59,0.7046,58,0.7,55,0.6989,57,0.6914,56,0.6914,84,0.6664,84,0.6625,77,0.6609,65,0.655
SK,48.669026,19.699024,Slovak Republic,77,0.712,63,0.718,83,0.693,74,0.694,94,0.679,97,0.675,90,0.6806,74,0.6857,70,0.6824,72,0.6797,71,0.6778,68,0.6845,64,0.6824,54,0.6797,50,0.6757
SI,46.151241,14.995463,Slovenia,41,0.741,36,0.743,11,0.784,7,0.805,8,0.786,9,0.784,23,0.7443,38,0.7155,38,0.7132,41,0.7041,42,0.7047,52,0.6982,51,0.6937,49,0.6842,51,0.6745
ZA,-30.559482,22.937506,South Africa,18,0.781,17,0.78,19,0.755,19,0.756,15,0.764,17,0.759,18,0.7527,17,0.751,16,0.7496,14,0.7478,12,0.7535,6,0.7709,22,0.7232,20,0.7194,18,0.7125
ES,40.463667,-3.74922,Spain,14,0.788,8,0.795,29,0.746,24,0.746,29,0.738,25,0.742,29,0.7325,30,0.7266,26,0.7266,12,0.758,11,0.7554,17,0.7345,17,0.7281,10,0.7444,11,0.7319
LK,7.873054,80.771797,Sri Lanka,116,0.67,102,0.68,100,0.676,109,0.669,100,0.673,84,0.686,79,0.6903,55,0.7019,39,0.7122,31,0.7212,16,0.7458,16,0.7402,12,0.7371,15,0.723,13,0.7199
SR,3.919305,-56.027783,Suriname,51,0.729,77,0.707,79,0.695,86,0.689,95,0.679,94,0.678,109,0.6504,110,0.6369,106,0.6409,104,0.6395,102,0.6407,78,0.6726,79,0.6674,56,0.6794,0,0
SE,60.128161,18.643501,Sweden,5,0.823,4,0.82,3,0.822,5,0.816,4,0.815,4,0.823,4,0.8165,4,0.8129,4,0.8159,4,0.8044,4,0.8024,4,0.8139,3,0.8139,1,0.8146,1,0.8133
CH,46.818188,8.227512,Switzerland,10,0.798,18,0.779,20,0.755,21,0.755,11,0.776,8,0.785,11,0.7798,9,0.7736,10,0.7672,10,0.7627,10,0.7562,13,0.7426,14,0.736,40,0.6924,26,0.6997
SY,34.802075,38.996815,Syria,152,0.568,150,0.567,146,0.568,142,0.568,142,0.567,143,0.568,139,0.5775,133,0.5661,132,0.5626,124,0.5896,124,0.5926,121,0.6072,107,0.6181,103,0.6216,0,0
TJ,38.861034,71.276093,Tajikistan,125,0.65,137,0.626,123,0.638,95,0.678,93,0.679,95,0.675,102,0.6654,90,0.6682,96,0.6608,96,0.6526,89,0.6598,86,0.6661,89,0.6541,79,0.6578,0,0
TZ,-6.369028,34.888822,Tanzania,82,0.707,68,0.713,71,0.704,68,0.7,53,0.716,49,0.718,47,0.7182,66,0.6928,46,0.7091,59,0.6904,66,0.6829,73,0.6797,38,0.7068,34,0.6969,24,0.7038
TH,15.870032,100.992541,Thailand,79,0.71,75,0.708,73,0.702,75,0.694,71,0.699,60,0.706,61,0.7027,65,0.6928,65,0.6893,60,0.6892,57,0.691,59,0.6907,52,0.6917,52,0.6815,40,0.6831
TL,-8.874217,125.727539,Timornaleste,64,0.72,117,0.662,124,0.638,128,0.628,125,0.637,0,0,0,0,0,0,0,0,0,0,0,0,0,0,0,0,0,0,0,0
TG,8.619543,0.824782,Togo,105,0.683,140,0.615,134,0.618,0,0,0,0,0,0,0,0,0,0,0,0,0,0,0,0,0,0,0,0,0,0,0,0
TT,10.691803,-61.222503,Trinidad and Tobago,37,0.749,24,0.756,0,0,0,0,44,0.723,46,0.72,49,0.7154,36,0.7166,43,0.7116,21,0.7372,21,0.7353,19,0.7298,19,0.7245,46,0.6859,45,0.6797
TN,33.886917,9.537499,Tunisia,126,0.649,124,0.644,119,0.648,117,0.651,126,0.636,127,0.634,0,0,0,0,0,0,0,0,0,0,0,0,0,0,0,0,0,0
TR,38.963745,35.243322,Turkey,133,0.638,130,0.635,130,0.628,131,0.625,130,0.623,130,0.624,125,0.6183,120,0.6081,124,0.6015,122,0.5954,126,0.5876,129,0.5828,123,0.5853,121,0.5768,105,0.585
UG,1.373333,32.290275,Uganda,66,0.717,65,0.717,43,0.724,45,0.721,61,0.704,58,0.708,88,0.6821,46,0.7086,28,0.7228,29,0.722,33,0.7169,40,0.7067,43,0.6981,50,0.6833,47,0.6797
UA,48.379433,31.16558,Ukraine,74,0.714,59,0.721,65,0.708,61,0.705,69,0.7,67,0.702,56,0.7056,64,0.6935,64,0.6894,64,0.6861,63,0.6869,61,0.6896,62,0.6856,57,0.679,48,0.6797
AE,23.424076,53.847818,United Arab Emirates,72,0.716,120,0.655,121,0.642,120,0.649,124,0.639,119,0.646,115,0.6436,109,0.6372,107,0.6392,103,0.6454,103,0.6397,112,0.6198,105,0.622,105,0.6184,101,0.5919
GB,55.378051,-3.435973,United Kingdom,23,0.775,21,0.767,15,0.774,15,0.77,20,0.752,18,0.758,26,0.7383,18,0.744,18,0.7433,16,0.7462,15,0.746,15,0.7402,13,0.7366,11,0.7441,9,0.7365
US,37.09024,-95.712891,United States,30,0.763,53,0.724,51,0.72,49,0.718,45,0.722,28,0.74,20,0.7463,23,0.7392,22,0.7373,17,0.7412,19,0.7411,31,0.7173,27,0.7179,31,0.7002,23,0.7042
UY,-32.522779,-55.765835,Uruguay,85,0.702,37,0.737,56,0.715,56,0.71,91,0.681,93,0.679,82,0.6871,77,0.6803,76,0.6745,58,0.6907,59,0.6897,57,0.6936,54,0.6907,78,0.6608,66,0.6549
VU,-15.376706,166.959158,Vanuatu,141,0.625,126,0.638,0,0,0,0,0,0,0,0,0,0,0,0,0,0,0,0,0,0,0,0,0,0,0,0,0,0
VE,6.42375,-66.58973,Venezuela,91,0.699,67,0.713,64,0.709,60,0.706,74,0.694,78,0.691,86,0.6851,50,0.706,48,0.706,63,0.6861,64,0.6863,69,0.6839,59,0.6875,55,0.6797,57,0.6664
VN,14.058324,108.277199,Vietnam,87,0.701,87,0.7,77,0.698,69,0.698,0,0,83,0.687,0,0,0,0,0,0,0,0,0,0,0,0,0,0,0,0,0,0
YE,15.552727,48.516388,Yemen,155,0.492,153,0.494,149,0.499,144,0.516,144,0.516,145,0.484,142,0.5145,136,0.5128,135,0.5054,135,0.4873,134,0.4603,134,0.4609,130,0.4664,128,0.451,115,0.4595
ZM,-13.133897,27.849332,Zambia,56,0.726,45,0.731,0,0,0,0,0,0,116,0.65,119,0.6364,113,0.6312,114,0.6279,106,0.63,106,0.6293,107,0.631,106,0.6205,101,0.6288,85,0.636
ZW,-19.015438,29.154857,Zimbabwe,47,0.732,47,0.73,47,0.721,50,0.717,56,0.71,57,0.709,0,0,0,0,0,0,0,0,0,0,0,0,0,0,0,0,0,0
